{"business_id":"2aFiy99vNLklCx3T_tGS9A","name":"SharpieTech","neighborhood":"","address":"","city":"Phoenix","state":"AZ","postal_code":"85050","latitude":33.6629442,"longitude":-112.0182329,"stars":5.0,"review_count":3,"is_open":1,"attributes":["BusinessAcceptsCreditCards: True"],"categories":["Web Design","IT Services & Computer Repair","Local Services","Professional Services"],"hours":null,"type":"business"}
{"business_id":"2LfIuF3_sX6uwe-IR-P0jQ","name":"Modern On Melrose","neighborhood":"","address":"4610 N 7th Ave","city":"Phoenix","state":"AZ","postal_code":"85013","latitude":33.5040543,"longitude":-112.082813,"stars":4.0,"review_count":15,"is_open":0,"attributes":["BikeParking: True","BusinessAcceptsCreditCards: True","BusinessParking: {'garage': False, 'street': True, 'validated': False, 'lot': True, 'valet': False}","ByAppointmentOnly: False","RestaurantsPriceRange2: 3"],"categories":["Home & Garden","Antiques","Home Decor","Shopping"],"hours":["Monday 11:0-17:0","Tuesday 11:0-17:0","Wednesday 11:0-17:0","Thursday 11:0-17:0","Friday 11:0-17:0","Saturday 11:0-17:0","Sunday 11:0-17:0"],"type":"business"}
{"business_id":"0czfEgv9KAD4VlIa7ANPWQ","name":"Mint","neighborhood":"","address":"201 E Camelback Rd","city":"Phoenix","state":"AZ","postal_code":"85012","latitude":33.5090487,"longitude":-112.0709232,"stars":3.0,"review_count":10,"is_open":0,"attributes":["BusinessAcceptsCreditCards: True","BusinessParking: {'garage': False, 'street': False, 'validated': False, 'lot': True, 'valet': False}","RestaurantsPriceRange2: 2","WheelchairAccessible: True"],"categories":["Women's Clothing","Used","Vintage & Consignment","Shopping","Fashion"],"hours":null,"type":"business"}
{"business_id":"7GI_V9oLCUGdn2ogqB0IBg","name":"Western States Petroleum","neighborhood":"","address":"450 S 15th Ave","city":"Phoenix","state":"AZ","postal_code":"85007","latitude":33.4426182,"longitude":-112.0926092,"stars":3.5,"review_count":3,"is_open":1,"attributes":null,"categories":["Professional Services","Gas & Service Stations","Automotive"],"hours":null,"type":"business"}
{"business_id":"4P-vTvE6cncJyUyLh73pxw","name":"London Pickle Works","neighborhood":"","address":"7265 Fitzwater Rd","city":"Brecksville","state":"OH","postal_code":"44141","latitude":41.3403188,"longitude":-81.6269998,"stars":3.5,"review_count":23,"is_open":1,"attributes":["Alcohol: full_bar","Ambience: {'romantic': False, 'intimate': False, 'classy': False, 'hipster': False, 'divey': False, 'touristy': False, 'trendy': False, 'upscale': False, 'casual': False}","BikeParking: True","BusinessAcceptsCreditCards: True","BusinessParking: {'garage': False, 'street': False, 'validated': False, 'lot': True, 'valet': False}","CoatCheck: False","GoodForDancing: False","GoodForKids: True","GoodForMeal: {'dessert': False, 'latenight': False, 'lunch': False, 'dinner': False, 'breakfast': False, 'brunch': False}","HappyHour: True","HasTV: True","NoiseLevel: average","OutdoorSeating: True","RestaurantsAttire: casual","RestaurantsDelivery: False","RestaurantsGoodForGroups: True","RestaurantsPriceRange2: 1","RestaurantsReservations: False","RestaurantsTableService: True","RestaurantsTakeOut: True","WheelchairAccessible: True","WiFi: no"],"categories":["Nightlife","American (Traditional)","Pubs","Restaurants","Bars"],"hours":["Monday 11:0-2:0","Tuesday 11:0-2:0","Wednesday 11:0-2:0","Thursday 11:0-2:0","Friday 11:0-2:0","Saturday 11:0-2:0","Sunday 11:0-2:0"],"type":"business"}
{"business_id":"4uiijOUDzc-DeIb2XcKW_A","name":"Khotan","neighborhood":"The Strip","address":"Treasure Island Hotel and Casino, 3300 S Las Vegas Blvd","city":"Las Vegas","state":"NV","postal_code":"89109","latitude":36.128561,"longitude":-115.1711298,"stars":2.5,"review_count":37,"is_open":0,"attributes":["Alcohol: full_bar","Ambience: {'romantic': False, 'intimate': False, 'classy': False, 'hipster': False, 'divey': False, 'touristy': False, 'trendy': False, 'upscale': True, 'casual': False}","BusinessAcceptsCreditCards: True","BusinessParking: {'garage': True, 'street': False, 'validated': False, 'lot': False, 'valet': False}","GoodForKids: False","GoodForMeal: {'dessert': False, 'latenight': False, 'lunch': False, 'dinner': True, 'breakfast': False, 'brunch': False}","HasTV: True","NoiseLevel: average","OutdoorSeating: True","RestaurantsAttire: casual","RestaurantsDelivery: False","RestaurantsGoodForGroups: True","RestaurantsPriceRange2: 3","RestaurantsReservations: True","RestaurantsTableService: True","RestaurantsTakeOut: False","WheelchairAccessible: True","WiFi: paid"],"categories":["Asian Fusion","Restaurants"],"hours":["Monday 17:0-23:0","Tuesday 17:0-23:0","Wednesday 17:0-23:0","Thursday 17:0-23:0","Friday 17:0-0:0","Saturday 17:0-0:0","Sunday 17:0-23:0"],"type":"business"}
{"business_id":"5WoHYemsAjuK85AOcGwEJg","name":"Arlt Computer","neighborhood":"","address":"Cannstatter Str. 119","city":"Fellbach","state":"BW","postal_code":"70734","latitude":48.8139,"longitude":9.27527,"stars":4.0,"review_count":6,"is_open":1,"attributes":["RestaurantsPriceRange2: 2"],"categories":["Shopping","Local Services","IT Services & Computer Repair","Computers"],"hours":["Monday 10:0-19:0","Tuesday 10:0-19:0","Wednesday 10:0-19:0","Thursday 10:0-19:0","Friday 10:0-19:0","Saturday 10:0-18:0"],"type":"business"}
{"business_id":"2cl9TETYE3CdzljPtdIbjA","name":"Sami's Cafe & Diner","neighborhood":"Hanlan","address":"1801 Britannia Rd, Unit 1","city":"Mississauga","state":"ON","postal_code":"L4W 1S6","latitude":43.6599240748,"longitude":-79.6405792236,"stars":5.0,"review_count":4,"is_open":1,"attributes":["GoodForKids: True","GoodForMeal: {'dessert': False, 'latenight': False, 'lunch': False, 'dinner': False, 'breakfast': False, 'brunch': False}","RestaurantsAttire: casual","RestaurantsDelivery: False","RestaurantsGoodForGroups: True","RestaurantsPriceRange2: 1","RestaurantsReservations: False","RestaurantsTakeOut: True"],"categories":["Comfort Food","Middle Eastern","Breakfast & Brunch","Restaurants"],"hours":["Monday 7:0-18:0","Tuesday 7:0-18:0","Wednesday 7:0-18:0","Thursday 7:0-18:0","Friday 7:0-18:0","Saturday 9:0-16:0"],"type":"business"}
{"business_id":"32S_SP-ZaVmQucdEY5ynlQ","name":"Bella Terra Condominiums At Paradise Valley","neighborhood":"","address":"5335 E Shea Boulevard Ofc","city":"Scottsdale","state":"AZ","postal_code":"85254","latitude":33.5812097,"longitude":-111.9651897,"stars":2.0,"review_count":4,"is_open":1,"attributes":["BusinessAcceptsCreditCards: False"],"categories":["Home Services","Real Estate","Apartments","Condominiums"],"hours":null,"type":"business"}
{"business_id":"7HnlXTF9f29HOYfblGLIHQ","name":"Toyo Grillades A La Japonaise","neighborhood":"Ville-Marie","address":"2155 De La Montagne Rue","city":"Montr√©al","state":"QC","postal_code":"H3G 1Z8","latitude":45.4994528,"longitude":-73.5777409,"stars":4.0,"review_count":14,"is_open":1,"attributes":["Alcohol: full_bar","Ambience: {'romantic': False, 'intimate': False, 'classy': False, 'hipster': False, 'touristy': False, 'trendy': False, 'upscale': False, 'casual': False}","BikeParking: True","BusinessAcceptsCreditCards: True","BusinessParking: {'garage': False, 'street': False, 'validated': False, 'lot': False, 'valet': False}","Caters: False","GoodForKids: True","GoodForMeal: {'dessert': False, 'latenight': False, 'lunch': False, 'dinner': False, 'breakfast': False, 'brunch': False}","HasTV: False","NoiseLevel: average","OutdoorSeating: False","RestaurantsAttire: casual","RestaurantsDelivery: False","RestaurantsGoodForGroups: True","RestaurantsPriceRange2: 3","RestaurantsReservations: True","RestaurantsTableService: True","RestaurantsTakeOut: True","WiFi: no"],"categories":["Japanese","Restaurants"],"hours":null,"type":"business"}